rosbagTimestamp,header,seq,stamp,secs,nsecs,frame_id,status,status,service,latitude,longitude,altitude,position_covariance,position_covariance_type
1475186966493565902,,1242,,1475186966,481836547,'',,0,1,37.3939386667,-122.114272,-42.5,"[0.0, 0.0, 0.0, 0.0, 0.0, 0.0, 0.0, 0.0, 0.0]",0
1475186967493834320,,1243,,1475186967,482110752,'',,0,1,37.393808,-122.114261333,-42.5,"[0.0, 0.0, 0.0, 0.0, 0.0, 0.0, 0.0, 0.0, 0.0]",0
1475186968473723202,,1244,,1475186968,471026535,'',,0,1,37.39368,-122.114261333,-42.5,"[0.0, 0.0, 0.0, 0.0, 0.0, 0.0, 0.0, 0.0, 0.0]",0
1475186969493542213,,1245,,1475186969,482026733,'',,0,1,37.3935546667,-122.114261333,-42.5,"[0.0, 0.0, 0.0, 0.0, 0.0, 0.0, 0.0, 0.0, 0.0]",0
1475186970493489844,,1246,,1475186970,482618114,'',,0,1,37.393432,-122.114261333,-42.5,"[0.0, 0.0, 0.0, 0.0, 0.0, 0.0, 0.0, 0.0, 0.0]",0
1475186971493529394,,1247,,1475186971,482360796,'',,0,1,37.3933093333,-122.114261333,-42.5,"[0.0, 0.0, 0.0, 0.0, 0.0, 0.0, 0.0, 0.0, 0.0]",0
1475186972493447899,,1248,,1475186972,481672876,'',,0,1,37.3931893333,-122.114261333,-42.5,"[0.0, 0.0, 0.0, 0.0, 0.0, 0.0, 0.0, 0.0, 0.0]",0
1475186973493927114,,1249,,1475186973,482193092,'',,0,1,37.3930693333,-122.114261333,-42.5,"[0.0, 0.0, 0.0, 0.0, 0.0, 0.0, 0.0, 0.0, 0.0]",0
1475186974494878747,,1250,,1475186974,481664087,'',,0,1,37.3929573333,-122.114261333,-42.5,"[0.0, 0.0, 0.0, 0.0, 0.0, 0.0, 0.0, 0.0, 0.0]",0
1475186975494525623,,1251,,1475186975,493750469,'',,0,1,37.3928453333,-122.114261333,-42.5,"[0.0, 0.0, 0.0, 0.0, 0.0, 0.0, 0.0, 0.0, 0.0]",0
1475186976494514110,,1252,,1475186976,492955887,'',,0,1,37.392736,-122.114261333,-42.5,"[0.0, 0.0, 0.0, 0.0, 0.0, 0.0, 0.0, 0.0, 0.0]",0
1475186977494209965,,1253,,1475186977,493407878,'',,0,1,37.392632,-122.114261333,-42.5,"[0.0, 0.0, 0.0, 0.0, 0.0, 0.0, 0.0, 0.0, 0.0]",0
1475186978494192006,,1254,,1475186978,492863676,'',,0,1,37.3925306667,-122.114261333,-42.5,"[0.0, 0.0, 0.0, 0.0, 0.0, 0.0, 0.0, 0.0, 0.0]",0
1475186979494230964,,1255,,1475186979,493129309,'',,0,1,37.392432,-122.114261333,-42.5,"[0.0, 0.0, 0.0, 0.0, 0.0, 0.0, 0.0, 0.0, 0.0]",0
1475186980494433236,,1256,,1475186980,493072615,'',,0,1,37.3923413333,-122.114261333,-42.5,"[0.0, 0.0, 0.0, 0.0, 0.0, 0.0, 0.0, 0.0, 0.0]",0
1475186981494278734,,1257,,1475186981,493176088,'',,0,1,37.3922506667,-122.114261333,-42.5,"[0.0, 0.0, 0.0, 0.0, 0.0, 0.0, 0.0, 0.0, 0.0]",0
1475186982494711954,,1258,,1475186982,493390709,'',,0,1,37.39216,-122.114261333,-42.5,"[0.0, 0.0, 0.0, 0.0, 0.0, 0.0, 0.0, 0.0, 0.0]",0
1475186983494340848,,1259,,1475186983,493259948,'',,0,1,37.392064,-122.114261333,-42.5,"[0.0, 0.0, 0.0, 0.0, 0.0, 0.0, 0.0, 0.0, 0.0]",0
1475186984494276248,,1260,,1475186984,481697609,'',,0,1,37.391968,-122.114261333,-42.5,"[0.0, 0.0, 0.0, 0.0, 0.0, 0.0, 0.0, 0.0, 0.0]",0
1475186985493511503,,1261,,1475186985,481970036,'',,0,1,37.391864,-122.114261333,-42.5,"[0.0, 0.0, 0.0, 0.0, 0.0, 0.0, 0.0, 0.0, 0.0]",0
1475186986493475027,,1262,,1475186986,481752716,'',,0,1,37.3917573333,-122.114261333,-42.5,"[0.0, 0.0, 0.0, 0.0, 0.0, 0.0, 0.0, 0.0, 0.0]",0
1475186987493370532,,1263,,1475186987,481721466,'',,0,1,37.3916506667,-122.114261333,-42.5,"[0.0, 0.0, 0.0, 0.0, 0.0, 0.0, 0.0, 0.0, 0.0]",0
1475186988494143504,,1264,,1475186988,492983230,'',,0,1,37.391536,-122.114261333,-42.5,"[0.0, 0.0, 0.0, 0.0, 0.0, 0.0, 0.0, 0.0, 0.0]",0
1475186989493612324,,1265,,1475186989,481778731,'',,0,1,37.3914186667,-122.114272,-42.5,"[0.0, 0.0, 0.0, 0.0, 0.0, 0.0, 0.0, 0.0, 0.0]",0
1475186990493817152,,1266,,1475186990,481810011,'',,0,1,37.3913013333,-122.114272,-42.5,"[0.0, 0.0, 0.0, 0.0, 0.0, 0.0, 0.0, 0.0, 0.0]",0
1475186991493326363,,1267,,1475186991,482217933,'',,0,1,37.3911813333,-122.114272,-42.5,"[0.0, 0.0, 0.0, 0.0, 0.0, 0.0, 0.0, 0.0, 0.0]",0
1475186992473366456,,1268,,1475186992,470978665,'',,0,1,37.391064,-122.114272,-42.5,"[0.0, 0.0, 0.0, 0.0, 0.0, 0.0, 0.0, 0.0, 0.0]",0
1475186993492981810,,1269,,1475186993,482097542,'',,0,1,37.3909466667,-122.114272,6.0,"[0.0, 0.0, 0.0, 0.0, 0.0, 0.0, 0.0, 0.0, 0.0]",0
1475186994473224959,,1270,,1475186994,470642333,'',,0,1,37.3908266667,-122.114282667,6.0,"[0.0, 0.0, 0.0, 0.0, 0.0, 0.0, 0.0, 0.0, 0.0]",0
1475186995493176426,,1271,,1475186995,482148784,'',,0,1,37.390704,-122.114282667,6.0,"[0.0, 0.0, 0.0, 0.0, 0.0, 0.0, 0.0, 0.0, 0.0]",0
1475186996474459435,,1272,,1475186996,470735995,'',,0,1,37.390576,-122.114282667,6.0,"[0.0, 0.0, 0.0, 0.0, 0.0, 0.0, 0.0, 0.0, 0.0]",0
1475186997493052408,,1273,,1475186997,482470082,'',,0,1,37.390448,-122.114282667,6.0,"[0.0, 0.0, 0.0, 0.0, 0.0, 0.0, 0.0, 0.0, 0.0]",0
1475186998492889507,,1274,,1475186998,482194374,'',,0,1,37.3903173333,-122.114282667,6.0,"[0.0, 0.0, 0.0, 0.0, 0.0, 0.0, 0.0, 0.0, 0.0]",0
1475186999474263482,,1275,,1475186999,470473422,'',,0,1,37.3901866667,-122.114282667,6.0,"[0.0, 0.0, 0.0, 0.0, 0.0, 0.0, 0.0, 0.0, 0.0]",0
1475187000473163871,,1276,,1475187000,470866189,'',,0,1,37.3900506667,-122.114282667,6.0,"[0.0, 0.0, 0.0, 0.0, 0.0, 0.0, 0.0, 0.0, 0.0]",0
1475187001473396651,,1277,,1475187001,468424338,'',,0,1,37.3899173333,-122.114282667,6.0,"[0.0, 0.0, 0.0, 0.0, 0.0, 0.0, 0.0, 0.0, 0.0]",0
1475187002474198167,,1278,,1475187002,470323482,'',,0,1,37.3897813333,-122.114282667,6.0,"[0.0, 0.0, 0.0, 0.0, 0.0, 0.0, 0.0, 0.0, 0.0]",0
1475187003473335860,,1279,,1475187003,470751260,'',,0,1,37.3896453333,-122.114282667,6.0,"[0.0, 0.0, 0.0, 0.0, 0.0, 0.0, 0.0, 0.0, 0.0]",0
1475187004473270161,,1280,,1475187004,468306048,'',,0,1,37.3895093333,-122.114282667,6.0,"[0.0, 0.0, 0.0, 0.0, 0.0, 0.0, 0.0, 0.0, 0.0]",0
1475187005474253084,,1281,,1475187005,468511834,'',,0,1,37.3893733333,-122.114282667,6.0,"[0.0, 0.0, 0.0, 0.0, 0.0, 0.0, 0.0, 0.0, 0.0]",0
1475187006473258759,,1282,,1475187006,468487432,'',,0,1,37.3892373333,-122.114282667,6.0,"[0.0, 0.0, 0.0, 0.0, 0.0, 0.0, 0.0, 0.0, 0.0]",0
1475187007492706806,,1283,,1475187007,482108480,'',,0,1,37.389104,-122.114282667,6.0,"[0.0, 0.0, 0.0, 0.0, 0.0, 0.0, 0.0, 0.0, 0.0]",0
1475187008492740659,,1284,,1475187008,482157411,'',,0,1,37.3889733333,-122.114272,6.0,"[0.0, 0.0, 0.0, 0.0, 0.0, 0.0, 0.0, 0.0, 0.0]",0
1475187009473229531,,1285,,1475187009,468345793,'',,0,1,37.3888426667,-122.114272,6.0,"[0.0, 0.0, 0.0, 0.0, 0.0, 0.0, 0.0, 0.0, 0.0]",0
1475187010492781016,,1286,,1475187010,482456045,'',,0,1,37.3887146667,-122.114272,6.0,"[0.0, 0.0, 0.0, 0.0, 0.0, 0.0, 0.0, 0.0, 0.0]",0
1475187011492953270,,1287,,1475187011,482188114,'',,0,1,37.3885866667,-122.114272,6.0,"[0.0, 0.0, 0.0, 0.0, 0.0, 0.0, 0.0, 0.0, 0.0]",0
1475187012492553762,,1288,,1475187012,483694097,'',,0,1,37.388456,-122.114272,6.0,"[0.0, 0.0, 0.0, 0.0, 0.0, 0.0, 0.0, 0.0, 0.0]",0
1475187013492667567,,1289,,1475187013,483213351,'',,0,1,37.388328,-122.114272,6.0,"[0.0, 0.0, 0.0, 0.0, 0.0, 0.0, 0.0, 0.0, 0.0]",0
1475187014493586239,,1290,,1475187014,492531455,'',,0,1,37.3881973333,-122.114261333,6.0,"[0.0, 0.0, 0.0, 0.0, 0.0, 0.0, 0.0, 0.0, 0.0]",0
1475187015473355862,,1291,,1475187015,471100139,'',,0,1,37.3880666667,-122.114261333,6.0,"[0.0, 0.0, 0.0, 0.0, 0.0, 0.0, 0.0, 0.0, 0.0]",0
1475187016473154610,,1292,,1475187016,468370444,'',,0,1,37.3879333333,-122.114261333,6.0,"[0.0, 0.0, 0.0, 0.0, 0.0, 0.0, 0.0, 0.0, 0.0]",0
1475187017473117234,,1293,,1475187017,468286740,'',,0,1,37.3877973333,-122.114261333,6.0,"[0.0, 0.0, 0.0, 0.0, 0.0, 0.0, 0.0, 0.0, 0.0]",0
1475187018492711594,,1294,,1475187018,482804393,'',,0,1,37.3876613333,-122.114261333,6.0,"[0.0, 0.0, 0.0, 0.0, 0.0, 0.0, 0.0, 0.0, 0.0]",0
1475187019492748534,,1295,,1475187019,482620447,'',,0,1,37.3875253333,-122.114261333,6.0,"[0.0, 0.0, 0.0, 0.0, 0.0, 0.0, 0.0, 0.0, 0.0]",0
1475187020492367241,,1296,,1475187020,482894511,'',,0,1,37.3873893333,-122.114261333,6.0,"[0.0, 0.0, 0.0, 0.0, 0.0, 0.0, 0.0, 0.0, 0.0]",0
1475187021492529918,,1297,,1475187021,482938236,'',,0,1,37.3872506667,-122.114261333,6.0,"[0.0, 0.0, 0.0, 0.0, 0.0, 0.0, 0.0, 0.0, 0.0]",0
1475187022472995260,,1298,,1475187022,470399602,'',,0,1,37.387112,-122.114261333,6.0,"[0.0, 0.0, 0.0, 0.0, 0.0, 0.0, 0.0, 0.0, 0.0]",0
1475187023473969377,,1299,,1475187023,471687835,'',,0,1,37.386976,-122.114272,6.0,"[0.0, 0.0, 0.0, 0.0, 0.0, 0.0, 0.0, 0.0, 0.0]",0
1475187024473168394,,1300,,1475187024,470768281,'',,0,1,37.3868426667,-122.114272,6.0,"[0.0, 0.0, 0.0, 0.0, 0.0, 0.0, 0.0, 0.0, 0.0]",0
1475187025472959823,,1301,,1475187025,470663583,'',,0,1,37.386712,-122.114261333,6.0,"[0.0, 0.0, 0.0, 0.0, 0.0, 0.0, 0.0, 0.0, 0.0]",0
1475187026473896811,,1302,,1475187026,471600308,'',,0,1,37.386584,-122.114272,6.0,"[0.0, 0.0, 0.0, 0.0, 0.0, 0.0, 0.0, 0.0, 0.0]",0
1475187027492146120,,1303,,1475187027,483560420,'',,0,1,37.3864586667,-122.114272,6.0,"[0.0, 0.0, 0.0, 0.0, 0.0, 0.0, 0.0, 0.0, 0.0]",0
1475187028492330502,,1304,,1475187028,482784475,'',,0,1,37.3863386667,-122.114272,6.0,"[0.0, 0.0, 0.0, 0.0, 0.0, 0.0, 0.0, 0.0, 0.0]",0
1475187029492285327,,1305,,1475187029,482754023,'',,0,1,37.3862213333,-122.114272,6.0,"[0.0, 0.0, 0.0, 0.0, 0.0, 0.0, 0.0, 0.0, 0.0]",0
1475187030494804275,,1306,,1475187030,483644869,'',,0,1,37.3861093333,-122.114272,6.0,"[0.0, 0.0, 0.0, 0.0, 0.0, 0.0, 0.0, 0.0, 0.0]",0
1475187031494642424,,1307,,1475187031,482900006,'',,0,1,37.3859973333,-122.114272,6.0,"[0.0, 0.0, 0.0, 0.0, 0.0, 0.0, 0.0, 0.0, 0.0]",0
1475187032493017310,,1308,,1475187032,483148458,'',,0,1,37.3858906667,-122.114272,6.0,"[0.0, 0.0, 0.0, 0.0, 0.0, 0.0, 0.0, 0.0, 0.0]",0
1475187033492002674,,1309,,1475187033,482953521,'',,0,1,37.3857893333,-122.114272,6.0,"[0.0, 0.0, 0.0, 0.0, 0.0, 0.0, 0.0, 0.0, 0.0]",0
1475187034492338445,,1310,,1475187034,482750393,'',,0,1,37.385688,-122.114272,6.0,"[0.0, 0.0, 0.0, 0.0, 0.0, 0.0, 0.0, 0.0, 0.0]",0
1475187035492208076,,1311,,1475187035,478274751,'',,0,1,37.3855946667,-122.114272,6.0,"[0.0, 0.0, 0.0, 0.0, 0.0, 0.0, 0.0, 0.0, 0.0]",0
1475187036475133141,,1312,,1475187036,473228877,'',,0,1,37.3855013333,-122.114272,6.0,"[0.0, 0.0, 0.0, 0.0, 0.0, 0.0, 0.0, 0.0, 0.0]",0
1475187037494582905,,1313,,1475187037,482957522,'',,0,1,37.385416,-122.114272,6.0,"[0.0, 0.0, 0.0, 0.0, 0.0, 0.0, 0.0, 0.0, 0.0]",0
1475187038474691328,,1314,,1475187038,472525420,'',,0,1,37.3853386667,-122.114282667,6.0,"[0.0, 0.0, 0.0, 0.0, 0.0, 0.0, 0.0, 0.0, 0.0]",0
1475187039492078435,,1315,,1475187039,483307329,'',,0,1,37.3852693333,-122.114282667,6.0,"[0.0, 0.0, 0.0, 0.0, 0.0, 0.0, 0.0, 0.0, 0.0]",0
1475187040474748525,,1316,,1475187040,472659019,'',,0,1,37.3852106667,-122.114282667,6.0,"[0.0, 0.0, 0.0, 0.0, 0.0, 0.0, 0.0, 0.0, 0.0]",0
1475187041491923256,,1317,,1475187041,482676394,'',,0,1,37.385168,-122.114282667,6.0,"[0.0, 0.0, 0.0, 0.0, 0.0, 0.0, 0.0, 0.0, 0.0]",0
1475187042491853731,,1318,,1475187042,483006682,'',,0,1,37.385136,-122.114282667,6.0,"[0.0, 0.0, 0.0, 0.0, 0.0, 0.0, 0.0, 0.0, 0.0]",0
1475187043474662287,,1319,,1475187043,472819256,'',,0,1,37.38512,-122.114282667,6.0,"[0.0, 0.0, 0.0, 0.0, 0.0, 0.0, 0.0, 0.0, 0.0]",0
1475187044491662638,,1320,,1475187044,482502695,'',,0,1,37.3851146667,-122.114282667,6.0,"[0.0, 0.0, 0.0, 0.0, 0.0, 0.0, 0.0, 0.0, 0.0]",0
1475187045491654310,,1321,,1475187045,482812208,'',,0,1,37.385112,-122.114282667,6.0,"[0.0, 0.0, 0.0, 0.0, 0.0, 0.0, 0.0, 0.0, 0.0]",0
1475187046493638271,,1322,,1475187046,491937117,'',,0,1,37.385112,-122.114282667,6.0,"[0.0, 0.0, 0.0, 0.0, 0.0, 0.0, 0.0, 0.0, 0.0]",0
1475187047491771772,,1323,,1475187047,482650555,'',,0,1,37.385112,-122.114282667,6.0,"[0.0, 0.0, 0.0, 0.0, 0.0, 0.0, 0.0, 0.0, 0.0]",0
1475187048493519146,,1324,,1475187048,491630431,'',,0,1,37.385112,-122.114282667,6.0,"[0.0, 0.0, 0.0, 0.0, 0.0, 0.0, 0.0, 0.0, 0.0]",0
1475187049492816373,,1325,,1475187049,491821406,'',,0,1,37.385112,-122.114282667,6.0,"[0.0, 0.0, 0.0, 0.0, 0.0, 0.0, 0.0, 0.0, 0.0]",0
1475187050493405740,,1326,,1475187050,491279447,'',,0,1,37.385112,-122.114282667,6.0,"[0.0, 0.0, 0.0, 0.0, 0.0, 0.0, 0.0, 0.0, 0.0]",0
1475187051496253015,,1327,,1475187051,492213888,'',,0,1,37.385112,-122.114282667,6.0,"[0.0, 0.0, 0.0, 0.0, 0.0, 0.0, 0.0, 0.0, 0.0]",0
1475187052496550514,,1328,,1475187052,494573376,'',,0,1,37.385112,-122.114282667,6.0,"[0.0, 0.0, 0.0, 0.0, 0.0, 0.0, 0.0, 0.0, 0.0]",0
1475187053497131663,,1329,,1475187053,491788645,'',,0,1,37.385112,-122.114282667,6.0,"[0.0, 0.0, 0.0, 0.0, 0.0, 0.0, 0.0, 0.0, 0.0]",0
1475187054497713195,,1330,,1475187054,491304270,'',,0,1,37.385112,-122.114282667,6.0,"[0.0, 0.0, 0.0, 0.0, 0.0, 0.0, 0.0, 0.0, 0.0]",0
1475187055494997790,,1331,,1475187055,491797249,'',,0,1,37.385112,-122.114282667,6.0,"[0.0, 0.0, 0.0, 0.0, 0.0, 0.0, 0.0, 0.0, 0.0]",0
1475187056496158843,,1332,,1475187056,492094739,'',,0,1,37.385112,-122.114282667,6.0,"[0.0, 0.0, 0.0, 0.0, 0.0, 0.0, 0.0, 0.0, 0.0]",0
1475187057495351803,,1333,,1475187057,492584070,'',,0,1,37.3851093333,-122.114282667,6.0,"[0.0, 0.0, 0.0, 0.0, 0.0, 0.0, 0.0, 0.0, 0.0]",0
1475187058494509219,,1334,,1475187058,492264268,'',,0,1,37.385104,-122.114282667,6.0,"[0.0, 0.0, 0.0, 0.0, 0.0, 0.0, 0.0, 0.0, 0.0]",0
1475187059495656494,,1335,,1475187059,493826478,'',,0,1,37.3850853333,-122.114282667,6.0,"[0.0, 0.0, 0.0, 0.0, 0.0, 0.0, 0.0, 0.0, 0.0]",0
1475187060494860648,,1336,,1475187060,492392066,'',,0,1,37.3850506667,-122.114272,6.0,"[0.0, 0.0, 0.0, 0.0, 0.0, 0.0, 0.0, 0.0, 0.0]",0
1475187061495207063,,1337,,1475187061,492483693,'',,0,1,37.3850026667,-122.114272,6.0,"[0.0, 0.0, 0.0, 0.0, 0.0, 0.0, 0.0, 0.0, 0.0]",0
1475187062494590966,,1338,,1475187062,492460288,'',,0,1,37.3849466667,-122.114272,6.0,"[0.0, 0.0, 0.0, 0.0, 0.0, 0.0, 0.0, 0.0, 0.0]",0
1475187063494608737,,1339,,1475187063,492512920,'',,0,1,37.38488,-122.114272,6.0,"[0.0, 0.0, 0.0, 0.0, 0.0, 0.0, 0.0, 0.0, 0.0]",0
1475187064494529447,,1340,,1475187064,492451053,'',,0,1,37.3848053333,-122.114272,6.0,"[0.0, 0.0, 0.0, 0.0, 0.0, 0.0, 0.0, 0.0, 0.0]",0
1475187065494143604,,1341,,1475187065,482115502,'',,0,1,37.3847226667,-122.114272,6.0,"[0.0, 0.0, 0.0, 0.0, 0.0, 0.0, 0.0, 0.0, 0.0]",0
1475187066494608185,,1342,,1475187066,482342456,'',,0,1,37.3846373333,-122.114261333,6.0,"[0.0, 0.0, 0.0, 0.0, 0.0, 0.0, 0.0, 0.0, 0.0]",0
1475187067494100836,,1343,,1475187067,482058336,'',,0,1,37.384544,-122.114261333,6.0,"[0.0, 0.0, 0.0, 0.0, 0.0, 0.0, 0.0, 0.0, 0.0]",0
1475187068494535283,,1344,,1475187068,492656086,'',,0,1,37.384448,-122.114261333,6.0,"[0.0, 0.0, 0.0, 0.0, 0.0, 0.0, 0.0, 0.0, 0.0]",0
1475187069494346264,,1345,,1475187069,482638429,'',,0,1,37.3843493333,-122.114261333,6.0,"[0.0, 0.0, 0.0, 0.0, 0.0, 0.0, 0.0, 0.0, 0.0]",0
1475187070494093264,,1346,,1475187070,481834351,'',,0,1,37.384248,-122.114261333,6.0,"[0.0, 0.0, 0.0, 0.0, 0.0, 0.0, 0.0, 0.0, 0.0]",0
1475187071494635003,,1347,,1475187071,482158342,'',,0,1,37.384144,-122.114261333,6.0,"[0.0, 0.0, 0.0, 0.0, 0.0, 0.0, 0.0, 0.0, 0.0]",0
1475187072471424515,,1348,,1475187072,469371336,'',,0,1,37.3840426667,-122.114261333,6.0,"[0.0, 0.0, 0.0, 0.0, 0.0, 0.0, 0.0, 0.0, 0.0]",0
1475187073471692728,,1349,,1475187073,468468014,'',,0,1,37.3839386667,-122.114261333,6.0,"[0.0, 0.0, 0.0, 0.0, 0.0, 0.0, 0.0, 0.0, 0.0]",0
1475187074493564995,,1350,,1475187074,482361380,'',,0,1,37.3838373333,-122.114261333,6.0,"[0.0, 0.0, 0.0, 0.0, 0.0, 0.0, 0.0, 0.0, 0.0]",0
1475187075491591386,,1351,,1475187075,482061001,'',,0,1,37.3837386667,-122.114261333,6.0,"[0.0, 0.0, 0.0, 0.0, 0.0, 0.0, 0.0, 0.0, 0.0]",0
1475187076491655518,,1352,,1475187076,481952165,'',,0,1,37.383648,-122.114261333,6.0,"[0.0, 0.0, 0.0, 0.0, 0.0, 0.0, 0.0, 0.0, 0.0]",0
1475187077491830270,,1353,,1475187077,478250762,'',,0,1,37.3835653333,-122.114261333,6.0,"[0.0, 0.0, 0.0, 0.0, 0.0, 0.0, 0.0, 0.0, 0.0]",0
1475187078491697067,,1354,,1475187078,479134690,'',,0,1,37.3834906667,-122.114261333,6.0,"[0.0, 0.0, 0.0, 0.0, 0.0, 0.0, 0.0, 0.0, 0.0]",0
1475187079491490229,,1355,,1475187079,481975178,'',,0,1,37.383416,-122.114261333,6.0,"[0.0, 0.0, 0.0, 0.0, 0.0, 0.0, 0.0, 0.0, 0.0]",0
1475187080491378185,,1356,,1475187080,479164163,'',,0,1,37.383344,-122.114261333,6.0,"[0.0, 0.0, 0.0, 0.0, 0.0, 0.0, 0.0, 0.0, 0.0]",0
1475187081491614402,,1357,,1475187081,479137643,'',,0,1,37.3832746667,-122.114261333,6.0,"[0.0, 0.0, 0.0, 0.0, 0.0, 0.0, 0.0, 0.0, 0.0]",0
1475187082491497952,,1358,,1475187082,481940262,'',,0,1,37.3831973333,-122.114261333,6.0,"[0.0, 0.0, 0.0, 0.0, 0.0, 0.0, 0.0, 0.0, 0.0]",0
1475187083477038666,,1359,,1475187083,468646150,'',,0,1,37.3831226667,-122.114261333,6.0,"[0.0, 0.0, 0.0, 0.0, 0.0, 0.0, 0.0, 0.0, 0.0]",0
1475187084491341690,,1360,,1475187084,479165409,'',,0,1,37.38304,-122.114261333,6.0,"[0.0, 0.0, 0.0, 0.0, 0.0, 0.0, 0.0, 0.0, 0.0]",0
1475187085491907124,,1361,,1475187085,479185212,'',,0,1,37.3829546667,-122.114261333,6.0,"[0.0, 0.0, 0.0, 0.0, 0.0, 0.0, 0.0, 0.0, 0.0]",0
1475187086476128968,,1362,,1475187086,471268553,'',,0,1,37.382872,-122.114261333,6.0,"[0.0, 0.0, 0.0, 0.0, 0.0, 0.0, 0.0, 0.0, 0.0]",0
1475187087491457826,,1363,,1475187087,479141522,'',,0,1,37.3827893333,-122.114261333,6.0,"[0.0, 0.0, 0.0, 0.0, 0.0, 0.0, 0.0, 0.0, 0.0]",0
1475187088491561558,,1364,,1475187088,479063150,'',,0,1,37.3827093333,-122.114261333,6.0,"[0.0, 0.0, 0.0, 0.0, 0.0, 0.0, 0.0, 0.0, 0.0]",0
1475187089491362051,,1365,,1475187089,479186094,'',,0,1,37.3826293333,-122.114261333,6.0,"[0.0, 0.0, 0.0, 0.0, 0.0, 0.0, 0.0, 0.0, 0.0]",0
1475187090494123456,,1366,,1475187090,491301007,'',,0,1,37.3825493333,-122.114261333,6.0,"[0.0, 0.0, 0.0, 0.0, 0.0, 0.0, 0.0, 0.0, 0.0]",0
1475187091493921822,,1367,,1475187091,491456827,'',,0,1,37.3824746667,-122.114261333,6.0,"[0.0, 0.0, 0.0, 0.0, 0.0, 0.0, 0.0, 0.0, 0.0]",0
1475187092497178809,,1368,,1475187092,495186492,'',,0,1,37.3824,-122.114261333,6.0,"[0.0, 0.0, 0.0, 0.0, 0.0, 0.0, 0.0, 0.0, 0.0]",0
1475187093499392888,,1369,,1475187093,479364477,'',,0,1,37.382328,-122.114261333,6.0,"[0.0, 0.0, 0.0, 0.0, 0.0, 0.0, 0.0, 0.0, 0.0]",0
1475187094501658776,,1370,,1475187094,479041086,'',,0,1,37.3822613333,-122.114272,6.0,"[0.0, 0.0, 0.0, 0.0, 0.0, 0.0, 0.0, 0.0, 0.0]",0
1475187095499461422,,1371,,1475187095,479088405,'',,0,1,37.3821893333,-122.114272,6.0,"[0.0, 0.0, 0.0, 0.0, 0.0, 0.0, 0.0, 0.0, 0.0]",0
1475187096491817665,,1372,,1475187096,479092528,'',,0,1,37.3821173333,-122.114272,6.0,"[0.0, 0.0, 0.0, 0.0, 0.0, 0.0, 0.0, 0.0, 0.0]",0
1475187097492252667,,1373,,1475187097,489849073,'',,0,1,37.3820346667,-122.114272,6.0,"[0.0, 0.0, 0.0, 0.0, 0.0, 0.0, 0.0, 0.0, 0.0]",0
1475187098493271363,,1374,,1475187098,478307949,'',,0,1,37.3819493333,-122.114282667,6.0,"[0.0, 0.0, 0.0, 0.0, 0.0, 0.0, 0.0, 0.0, 0.0]",0
1475187099492251061,,1375,,1475187099,479082666,'',,0,1,37.381856,-122.114282667,6.0,"[0.0, 0.0, 0.0, 0.0, 0.0, 0.0, 0.0, 0.0, 0.0]",0
1475187100493037542,,1376,,1475187100,479152367,'',,0,1,37.381768,-122.114282667,6.0,"[0.0, 0.0, 0.0, 0.0, 0.0, 0.0, 0.0, 0.0, 0.0]",0
1475187101493209948,,1377,,1475187101,479275241,'',,0,1,37.38168,-122.114282667,6.0,"[0.0, 0.0, 0.0, 0.0, 0.0, 0.0, 0.0, 0.0, 0.0]",0
1475187102494059152,,1378,,1475187102,479124351,'',,0,1,37.3815973333,-122.114282667,6.0,"[0.0, 0.0, 0.0, 0.0, 0.0, 0.0, 0.0, 0.0, 0.0]",0
1475187103491856434,,1379,,1475187103,479182743,'',,0,1,37.3815146667,-122.114272,6.0,"[0.0, 0.0, 0.0, 0.0, 0.0, 0.0, 0.0, 0.0, 0.0]",0
1475187104491767644,,1380,,1475187104,479091842,'',,0,1,37.381424,-122.114272,6.0,"[0.0, 0.0, 0.0, 0.0, 0.0, 0.0, 0.0, 0.0, 0.0]",0
1475187105490150474,,1381,,1475187105,479048286,'',,0,1,37.381336,-122.114272,6.0,"[0.0, 0.0, 0.0, 0.0, 0.0, 0.0, 0.0, 0.0, 0.0]",0
1475187106491802886,,1382,,1475187106,479966219,'',,0,1,37.3812426667,-122.114272,6.0,"[0.0, 0.0, 0.0, 0.0, 0.0, 0.0, 0.0, 0.0, 0.0]",0
1475187107492969663,,1383,,1475187107,489073391,'',,0,1,37.3811493333,-122.114272,6.0,"[0.0, 0.0, 0.0, 0.0, 0.0, 0.0, 0.0, 0.0, 0.0]",0
1475187108493371942,,1384,,1475187108,489593443,'',,0,1,37.3810613333,-122.114272,6.0,"[0.0, 0.0, 0.0, 0.0, 0.0, 0.0, 0.0, 0.0, 0.0]",0
1475187109493032817,,1385,,1475187109,489345713,'',,0,1,37.3809706667,-122.114272,6.0,"[0.0, 0.0, 0.0, 0.0, 0.0, 0.0, 0.0, 0.0, 0.0]",0
1475187110491973733,,1386,,1475187110,479287244,'',,0,1,37.3808853333,-122.114272,6.0,"[0.0, 0.0, 0.0, 0.0, 0.0, 0.0, 0.0, 0.0, 0.0]",0
1475187111491834218,,1387,,1475187111,479284893,'',,0,1,37.3808026667,-122.114272,6.0,"[0.0, 0.0, 0.0, 0.0, 0.0, 0.0, 0.0, 0.0, 0.0]",0
1475187112473042957,,1388,,1475187112,469269623,'',,0,1,37.3807173333,-122.114272,6.0,"[0.0, 0.0, 0.0, 0.0, 0.0, 0.0, 0.0, 0.0, 0.0]",0
1475187113493018940,,1389,,1475187113,479193481,'',,0,1,37.3806346667,-122.114272,6.0,"[0.0, 0.0, 0.0, 0.0, 0.0, 0.0, 0.0, 0.0, 0.0]",0
1475187114494028951,,1390,,1475187114,493193302,'',,0,1,37.380544,-122.114272,6.0,"[0.0, 0.0, 0.0, 0.0, 0.0, 0.0, 0.0, 0.0, 0.0]",0
1475187115493942788,,1391,,1475187115,492854834,'',,0,1,37.3804533333,-122.114282667,6.0,"[0.0, 0.0, 0.0, 0.0, 0.0, 0.0, 0.0, 0.0, 0.0]",0
1475187116494032654,,1392,,1475187116,492492887,'',,0,1,37.3803626667,-122.114282667,6.0,"[0.0, 0.0, 0.0, 0.0, 0.0, 0.0, 0.0, 0.0, 0.0]",0
1475187117493061844,,1393,,1475187117,490237188,'',,0,1,37.3802773333,-122.114282667,6.0,"[0.0, 0.0, 0.0, 0.0, 0.0, 0.0, 0.0, 0.0, 0.0]",0
1475187118493823660,,1394,,1475187118,490249620,'',,0,1,37.380192,-122.114282667,6.0,"[0.0, 0.0, 0.0, 0.0, 0.0, 0.0, 0.0, 0.0, 0.0]",0
1475187119494061811,,1395,,1475187119,492354445,'',,0,1,37.3801226667,-122.114282667,6.0,"[0.0, 0.0, 0.0, 0.0, 0.0, 0.0, 0.0, 0.0, 0.0]",0
1475187120495190791,,1396,,1475187120,493155159,'',,0,1,37.3800666667,-122.114282667,6.0,"[0.0, 0.0, 0.0, 0.0, 0.0, 0.0, 0.0, 0.0, 0.0]",0
1475187121494462344,,1397,,1475187121,492808438,'',,0,1,37.380024,-122.114282667,6.0,"[0.0, 0.0, 0.0, 0.0, 0.0, 0.0, 0.0, 0.0, 0.0]",0
1475187122494666700,,1398,,1475187122,489676080,'',,0,1,37.3799973333,-122.114282667,6.0,"[0.0, 0.0, 0.0, 0.0, 0.0, 0.0, 0.0, 0.0, 0.0]",0
1475187123495532774,,1399,,1475187123,479019845,'',,0,1,37.379976,-122.114282667,6.0,"[0.0, 0.0, 0.0, 0.0, 0.0, 0.0, 0.0, 0.0, 0.0]",0
1475187124494756495,,1400,,1475187124,479020616,'',,0,1,37.3799626667,-122.114282667,6.0,"[0.0, 0.0, 0.0, 0.0, 0.0, 0.0, 0.0, 0.0, 0.0]",0
1475187125494881090,,1401,,1475187125,492870616,'',,0,1,37.379952,-122.114282667,6.0,"[0.0, 0.0, 0.0, 0.0, 0.0, 0.0, 0.0, 0.0, 0.0]",0
1475187126495082500,,1402,,1475187126,493171790,'',,0,1,37.3799413333,-122.114282667,6.0,"[0.0, 0.0, 0.0, 0.0, 0.0, 0.0, 0.0, 0.0, 0.0]",0
1475187127494667169,,1403,,1475187127,478921032,'',,0,1,37.3799253333,-122.114282667,6.0,"[0.0, 0.0, 0.0, 0.0, 0.0, 0.0, 0.0, 0.0, 0.0]",0
1475187128494615035,,1404,,1475187128,479215127,'',,0,1,37.379904,-122.114282667,6.0,"[0.0, 0.0, 0.0, 0.0, 0.0, 0.0, 0.0, 0.0, 0.0]",0
1475187129495329535,,1405,,1475187129,494014938,'',,0,1,37.379872,-122.114282667,6.0,"[0.0, 0.0, 0.0, 0.0, 0.0, 0.0, 0.0, 0.0, 0.0]",0
1475187130495385219,,1406,,1475187130,493416718,'',,0,1,37.3798346667,-122.114282667,6.0,"[0.0, 0.0, 0.0, 0.0, 0.0, 0.0, 0.0, 0.0, 0.0]",0
1475187131494535581,,1407,,1475187131,478993541,'',,0,1,37.379792,-122.114282667,6.0,"[0.0, 0.0, 0.0, 0.0, 0.0, 0.0, 0.0, 0.0, 0.0]",0
1475187132494485043,,1408,,1475187132,478929858,'',,0,1,37.3797546667,-122.114282667,6.0,"[0.0, 0.0, 0.0, 0.0, 0.0, 0.0, 0.0, 0.0, 0.0]",0
1475187133495610473,,1409,,1475187133,492984967,'',,0,1,37.379704,-122.114282667,6.0,"[0.0, 0.0, 0.0, 0.0, 0.0, 0.0, 0.0, 0.0, 0.0]",0
1475187134495470529,,1410,,1475187134,492985910,'',,0,1,37.379648,-122.114282667,6.0,"[0.0, 0.0, 0.0, 0.0, 0.0, 0.0, 0.0, 0.0, 0.0]",0
1475187135495461434,,1411,,1475187135,479395261,'',,0,1,37.379584,-122.114282667,6.0,"[0.0, 0.0, 0.0, 0.0, 0.0, 0.0, 0.0, 0.0, 0.0]",0
1475187136495441000,,1412,,1475187136,479044965,'',,0,1,37.3795093333,-122.114282667,6.0,"[0.0, 0.0, 0.0, 0.0, 0.0, 0.0, 0.0, 0.0, 0.0]",0
1475187137495346102,,1413,,1475187137,493412093,'',,0,1,37.379424,-122.114282667,6.0,"[0.0, 0.0, 0.0, 0.0, 0.0, 0.0, 0.0, 0.0, 0.0]",0
1475187138496310585,,1414,,1475187138,493745274,'',,0,1,37.3793386667,-122.114282667,6.0,"[0.0, 0.0, 0.0, 0.0, 0.0, 0.0, 0.0, 0.0, 0.0]",0
1475187139494589443,,1415,,1475187139,479185191,'',,0,1,37.3792506667,-122.114282667,6.0,"[0.0, 0.0, 0.0, 0.0, 0.0, 0.0, 0.0, 0.0, 0.0]",0
1475187140493878378,,1416,,1475187140,478223019,'',,0,1,37.379168,-122.114282667,6.0,"[0.0, 0.0, 0.0, 0.0, 0.0, 0.0, 0.0, 0.0, 0.0]",0
1475187141494239914,,1417,,1475187141,478890491,'',,0,1,37.3790853333,-122.114282667,6.0,"[0.0, 0.0, 0.0, 0.0, 0.0, 0.0, 0.0, 0.0, 0.0]",0
1475187142494253335,,1418,,1475187142,478857323,'',,0,1,37.3790053333,-122.114282667,6.0,"[0.0, 0.0, 0.0, 0.0, 0.0, 0.0, 0.0, 0.0, 0.0]",0
1475187143494466821,,1419,,1475187143,478837383,'',,0,1,37.3789306667,-122.114282667,6.0,"[0.0, 0.0, 0.0, 0.0, 0.0, 0.0, 0.0, 0.0, 0.0]",0
1475187144494517987,,1420,,1475187144,479011566,'',,0,1,37.378856,-122.114282667,6.0,"[0.0, 0.0, 0.0, 0.0, 0.0, 0.0, 0.0, 0.0, 0.0]",0
1475187145473442406,,1421,,1475187145,469071324,'',,0,1,37.378784,-122.114282667,6.0,"[0.0, 0.0, 0.0, 0.0, 0.0, 0.0, 0.0, 0.0, 0.0]",0
1475187146494604390,,1422,,1475187146,478836377,'',,0,1,37.3787146667,-122.114282667,6.0,"[0.0, 0.0, 0.0, 0.0, 0.0, 0.0, 0.0, 0.0, 0.0]",0
1475187147494806987,,1423,,1475187147,478885744,'',,0,1,37.3786426667,-122.114282667,6.0,"[0.0, 0.0, 0.0, 0.0, 0.0, 0.0, 0.0, 0.0, 0.0]",0
1475187148494518836,,1424,,1475187148,478908504,'',,0,1,37.3785626667,-122.114282667,6.0,"[0.0, 0.0, 0.0, 0.0, 0.0, 0.0, 0.0, 0.0, 0.0]",0
1475187149494516447,,1425,,1475187149,478804612,'',,0,1,37.3784826667,-122.114282667,6.0,"[0.0, 0.0, 0.0, 0.0, 0.0, 0.0, 0.0, 0.0, 0.0]",0
1475187150494551902,,1426,,1475187150,478891887,'',,0,1,37.3783946667,-122.114282667,6.0,"[0.0, 0.0, 0.0, 0.0, 0.0, 0.0, 0.0, 0.0, 0.0]",0
1475187151494358309,,1427,,1475187151,478833762,'',,0,1,37.378304,-122.114282667,6.0,"[0.0, 0.0, 0.0, 0.0, 0.0, 0.0, 0.0, 0.0, 0.0]",0
1475187152493643883,,1428,,1475187152,478781224,'',,0,1,37.378208,-122.114282667,6.0,"[0.0, 0.0, 0.0, 0.0, 0.0, 0.0, 0.0, 0.0, 0.0]",0
1475187153494439918,,1429,,1475187153,478839823,'',,0,1,37.3781093333,-122.114282667,6.0,"[0.0, 0.0, 0.0, 0.0, 0.0, 0.0, 0.0, 0.0, 0.0]",0
1475187154493922227,,1430,,1475187154,478814928,'',,0,1,37.3780026667,-122.114282667,6.0,"[0.0, 0.0, 0.0, 0.0, 0.0, 0.0, 0.0, 0.0, 0.0]",0
1475187155494059041,,1431,,1475187155,478936532,'',,0,1,37.3778986667,-122.114282667,6.0,"[0.0, 0.0, 0.0, 0.0, 0.0, 0.0, 0.0, 0.0, 0.0]",0
1475187156494730396,,1432,,1475187156,479099054,'',,0,1,37.377792,-122.114282667,6.0,"[0.0, 0.0, 0.0, 0.0, 0.0, 0.0, 0.0, 0.0, 0.0]",0
1475187157494642740,,1433,,1475187157,478785472,'',,0,1,37.3776933333,-122.114272,6.0,"[0.0, 0.0, 0.0, 0.0, 0.0, 0.0, 0.0, 0.0, 0.0]",0
1475187158494740182,,1434,,1475187158,478793940,'',,0,1,37.3775973333,-122.114282667,6.0,"[0.0, 0.0, 0.0, 0.0, 0.0, 0.0, 0.0, 0.0, 0.0]",0
1475187159473715320,,1435,,1475187159,468434351,'',,0,1,37.3775066667,-122.114282667,6.0,"[0.0, 0.0, 0.0, 0.0, 0.0, 0.0, 0.0, 0.0, 0.0]",0
1475187160473924257,,1436,,1475187160,469097917,'',,0,1,37.3774186667,-122.114282667,6.0,"[0.0, 0.0, 0.0, 0.0, 0.0, 0.0, 0.0, 0.0, 0.0]",0
1475187161473852144,,1437,,1475187161,469266620,'',,0,1,37.3773253333,-122.114282667,6.0,"[0.0, 0.0, 0.0, 0.0, 0.0, 0.0, 0.0, 0.0, 0.0]",0
1475187162494354429,,1438,,1475187162,478761904,'',,0,1,37.3772293333,-122.114282667,6.0,"[0.0, 0.0, 0.0, 0.0, 0.0, 0.0, 0.0, 0.0, 0.0]",0
1475187163494259825,,1439,,1475187163,478792866,'',,0,1,37.3771253333,-122.114272,6.0,"[0.0, 0.0, 0.0, 0.0, 0.0, 0.0, 0.0, 0.0, 0.0]",0
1475187164494491532,,1440,,1475187164,478783244,'',,0,1,37.3770186667,-122.114272,6.0,"[0.0, 0.0, 0.0, 0.0, 0.0, 0.0, 0.0, 0.0, 0.0]",0
1475187165494357341,,1441,,1475187165,478797662,'',,0,1,37.3769093333,-122.114272,6.0,"[0.0, 0.0, 0.0, 0.0, 0.0, 0.0, 0.0, 0.0, 0.0]",0
1475187166493555398,,1442,,1475187166,478878036,'',,0,1,37.3768,-122.114282667,6.0,"[0.0, 0.0, 0.0, 0.0, 0.0, 0.0, 0.0, 0.0, 0.0]",0
1475187167473947103,,1443,,1475187167,470052374,'',,0,1,37.376688,-122.114282667,6.0,"[0.0, 0.0, 0.0, 0.0, 0.0, 0.0, 0.0, 0.0, 0.0]",0
1475187168493469767,,1444,,1475187168,478715454,'',,0,1,37.3765733333,-122.114282667,6.0,"[0.0, 0.0, 0.0, 0.0, 0.0, 0.0, 0.0, 0.0, 0.0]",0
1475187169493466870,,1445,,1475187169,478740435,'',,0,1,37.3764586667,-122.114282667,6.0,"[0.0, 0.0, 0.0, 0.0, 0.0, 0.0, 0.0, 0.0, 0.0]",0
1475187170493390165,,1446,,1475187170,478799279,'',,0,1,37.376344,-122.114293333,6.0,"[0.0, 0.0, 0.0, 0.0, 0.0, 0.0, 0.0, 0.0, 0.0]",0
1475187171493600265,,1447,,1475187171,478741578,'',,0,1,37.3762293333,-122.114293333,6.0,"[0.0, 0.0, 0.0, 0.0, 0.0, 0.0, 0.0, 0.0, 0.0]",0
1475187172493341878,,1448,,1475187172,478725433,'',,0,1,37.3761173333,-122.114304,6.0,"[0.0, 0.0, 0.0, 0.0, 0.0, 0.0, 0.0, 0.0, 0.0]",0
1475187173493538037,,1449,,1475187173,478758266,'',,0,1,37.3760053333,-122.114304,6.0,"[0.0, 0.0, 0.0, 0.0, 0.0, 0.0, 0.0, 0.0, 0.0]",0
1475187174494392594,,1450,,1475187174,493657988,'',,0,1,37.3758986667,-122.114314667,6.0,"[0.0, 0.0, 0.0, 0.0, 0.0, 0.0, 0.0, 0.0, 0.0]",0
1475187175493259603,,1451,,1475187175,478668251,'',,0,1,37.3757973333,-122.114314667,6.0,"[0.0, 0.0, 0.0, 0.0, 0.0, 0.0, 0.0, 0.0, 0.0]",0
1475187176493428538,,1452,,1475187176,478664977,'',,0,1,37.375696,-122.114314667,6.0,"[0.0, 0.0, 0.0, 0.0, 0.0, 0.0, 0.0, 0.0, 0.0]",0
1475187177495197678,,1453,,1475187177,493339451,'',,0,1,37.3756,-122.114314667,6.0,"[0.0, 0.0, 0.0, 0.0, 0.0, 0.0, 0.0, 0.0, 0.0]",0
1475187178493697379,,1454,,1475187178,478868742,'',,0,1,37.375504,-122.114314667,6.0,"[0.0, 0.0, 0.0, 0.0, 0.0, 0.0, 0.0, 0.0, 0.0]",0
1475187179494418657,,1455,,1475187179,478679671,'',,0,1,37.375416,-122.114304,6.0,"[0.0, 0.0, 0.0, 0.0, 0.0, 0.0, 0.0, 0.0, 0.0]",0
1475187180493318653,,1456,,1475187180,478689158,'',,0,1,37.375328,-122.114304,6.0,"[0.0, 0.0, 0.0, 0.0, 0.0, 0.0, 0.0, 0.0, 0.0]",0
1475187181493169444,,1457,,1475187181,478801974,'',,0,1,37.3752426667,-122.114304,6.0,"[0.0, 0.0, 0.0, 0.0, 0.0, 0.0, 0.0, 0.0, 0.0]",0
1475187182493229638,,1458,,1475187182,490532895,'',,0,1,37.37516,-122.114304,6.0,"[0.0, 0.0, 0.0, 0.0, 0.0, 0.0, 0.0, 0.0, 0.0]",0
1475187183494008836,,1459,,1475187183,478639681,'',,0,1,37.3750826667,-122.114304,6.0,"[0.0, 0.0, 0.0, 0.0, 0.0, 0.0, 0.0, 0.0, 0.0]",0
1475187184494050163,,1460,,1475187184,478643692,'',,0,1,37.3750133333,-122.114304,6.0,"[0.0, 0.0, 0.0, 0.0, 0.0, 0.0, 0.0, 0.0, 0.0]",0
1475187185493289375,,1461,,1475187185,478779471,'',,0,1,37.3749546667,-122.114304,6.0,"[0.0, 0.0, 0.0, 0.0, 0.0, 0.0, 0.0, 0.0, 0.0]",0
1475187186494068105,,1462,,1475187186,478642154,'',,0,1,37.374904,-122.114304,6.0,"[0.0, 0.0, 0.0, 0.0, 0.0, 0.0, 0.0, 0.0, 0.0]",0
1475187187493905665,,1463,,1475187187,478913292,'',,0,1,37.3748666667,-122.114304,6.0,"[0.0, 0.0, 0.0, 0.0, 0.0, 0.0, 0.0, 0.0, 0.0]",0
1475187188494146880,,1464,,1475187188,478654896,'',,0,1,37.3748426667,-122.114304,6.0,"[0.0, 0.0, 0.0, 0.0, 0.0, 0.0, 0.0, 0.0, 0.0]",0
1475187189493656364,,1465,,1475187189,478683222,'',,0,1,37.3748293333,-122.114304,6.0,"[0.0, 0.0, 0.0, 0.0, 0.0, 0.0, 0.0, 0.0, 0.0]",0
1475187190493210460,,1466,,1475187190,478676701,'',,0,1,37.3748213333,-122.114304,6.0,"[0.0, 0.0, 0.0, 0.0, 0.0, 0.0, 0.0, 0.0, 0.0]",0
1475187191493341005,,1467,,1475187191,478644559,'',,0,1,37.374816,-122.114304,6.0,"[0.0, 0.0, 0.0, 0.0, 0.0, 0.0, 0.0, 0.0, 0.0]",0
1475187192493659581,,1468,,1475187192,478944404,'',,0,1,37.3748106667,-122.114304,6.0,"[0.0, 0.0, 0.0, 0.0, 0.0, 0.0, 0.0, 0.0, 0.0]",0
1475187193493435950,,1469,,1475187193,478623470,'',,0,1,37.374808,-122.114304,6.0,"[0.0, 0.0, 0.0, 0.0, 0.0, 0.0, 0.0, 0.0, 0.0]",0
1475187194493400818,,1470,,1475187194,491175001,'',,0,1,37.3748053333,-122.114304,6.0,"[0.0, 0.0, 0.0, 0.0, 0.0, 0.0, 0.0, 0.0, 0.0]",0
1475187195493725210,,1471,,1475187195,478689750,'',,0,1,37.3748053333,-122.114304,6.0,"[0.0, 0.0, 0.0, 0.0, 0.0, 0.0, 0.0, 0.0, 0.0]",0
1475187196493698366,,1472,,1475187196,478639098,'',,0,1,37.3748053333,-122.114304,6.0,"[0.0, 0.0, 0.0, 0.0, 0.0, 0.0, 0.0, 0.0, 0.0]",0
1475187197493806097,,1473,,1475187197,478892717,'',,0,1,37.3748053333,-122.114304,6.0,"[0.0, 0.0, 0.0, 0.0, 0.0, 0.0, 0.0, 0.0, 0.0]",0
1475187198493564452,,1474,,1475187198,478878126,'',,0,1,37.3748026667,-122.114304,6.0,"[0.0, 0.0, 0.0, 0.0, 0.0, 0.0, 0.0, 0.0, 0.0]",0
1475187199496583380,,1475,,1475187199,478868490,'',,0,1,37.3747946667,-122.114304,6.0,"[0.0, 0.0, 0.0, 0.0, 0.0, 0.0, 0.0, 0.0, 0.0]",0
1475187200497015237,,1476,,1475187200,491190014,'',,0,1,37.3747706667,-122.114304,6.0,"[0.0, 0.0, 0.0, 0.0, 0.0, 0.0, 0.0, 0.0, 0.0]",0
1475187201497346827,,1477,,1475187201,491411319,'',,0,1,37.374736,-122.114304,6.0,"[0.0, 0.0, 0.0, 0.0, 0.0, 0.0, 0.0, 0.0, 0.0]",0
1475187202496561826,,1478,,1475187202,478631646,'',,0,1,37.3746906667,-122.114304,6.0,"[0.0, 0.0, 0.0, 0.0, 0.0, 0.0, 0.0, 0.0, 0.0]",0
1475187203496438574,,1479,,1475187203,479155744,'',,0,1,37.3746373333,-122.114304,6.0,"[0.0, 0.0, 0.0, 0.0, 0.0, 0.0, 0.0, 0.0, 0.0]",0
1475187204496431061,,1480,,1475187204,478549407,'',,0,1,37.374584,-122.114304,6.0,"[0.0, 0.0, 0.0, 0.0, 0.0, 0.0, 0.0, 0.0, 0.0]",0
1475187205470853682,,1481,,1475187205,468574807,'',,0,1,37.3745253333,-122.114304,6.0,"[0.0, 0.0, 0.0, 0.0, 0.0, 0.0, 0.0, 0.0, 0.0]",0
1475187206473387488,,1482,,1475187206,470191852,'',,0,1,37.3744613333,-122.114304,6.0,"[0.0, 0.0, 0.0, 0.0, 0.0, 0.0, 0.0, 0.0, 0.0]",0
1475187207470855541,,1483,,1475187207,468676760,'',,0,1,37.3743893333,-122.114304,6.0,"[0.0, 0.0, 0.0, 0.0, 0.0, 0.0, 0.0, 0.0, 0.0]",0
1475187208470724705,,1484,,1475187208,468764724,'',,0,1,37.3743093333,-122.114304,6.0,"[0.0, 0.0, 0.0, 0.0, 0.0, 0.0, 0.0, 0.0, 0.0]",0
1475187209496486657,,1485,,1475187209,478607058,'',,0,1,37.374224,-122.114304,6.0,"[0.0, 0.0, 0.0, 0.0, 0.0, 0.0, 0.0, 0.0, 0.0]",0
1475187210496488295,,1486,,1475187210,478546338,'',,0,1,37.3741333333,-122.114304,6.0,"[0.0, 0.0, 0.0, 0.0, 0.0, 0.0, 0.0, 0.0, 0.0]",0
1475187211496478804,,1487,,1475187211,478574221,'',,0,1,37.3740426667,-122.114304,6.0,"[0.0, 0.0, 0.0, 0.0, 0.0, 0.0, 0.0, 0.0, 0.0]",0
1475187212496439432,,1488,,1475187212,478560894,'',,0,1,37.3739466667,-122.114304,6.0,"[0.0, 0.0, 0.0, 0.0, 0.0, 0.0, 0.0, 0.0, 0.0]",0
1475187213496459849,,1489,,1475187213,478600973,'',,0,1,37.373856,-122.114304,6.0,"[0.0, 0.0, 0.0, 0.0, 0.0, 0.0, 0.0, 0.0, 0.0]",0
1475187214496439931,,1490,,1475187214,478856997,'',,0,1,37.373768,-122.114293333,6.0,"[0.0, 0.0, 0.0, 0.0, 0.0, 0.0, 0.0, 0.0, 0.0]",0
1475187215496505394,,1491,,1475187215,478570175,'',,0,1,37.3736853333,-122.114293333,6.0,"[0.0, 0.0, 0.0, 0.0, 0.0, 0.0, 0.0, 0.0, 0.0]",0
1475187216496493467,,1492,,1475187216,478594761,'',,0,1,37.373616,-122.114293333,6.0,"[0.0, 0.0, 0.0, 0.0, 0.0, 0.0, 0.0, 0.0, 0.0]",0
1475187217496593878,,1493,,1475187217,478557038,'',,0,1,37.37356,-122.114325333,6.0,"[0.0, 0.0, 0.0, 0.0, 0.0, 0.0, 0.0, 0.0, 0.0]",0
1475187218496817402,,1494,,1475187218,478734218,'',,0,1,37.3735226667,-122.114368,6.0,"[0.0, 0.0, 0.0, 0.0, 0.0, 0.0, 0.0, 0.0, 0.0]",0
1475187219497292984,,1495,,1475187219,490578601,'',,0,1,37.373504,-122.114432,6.0,"[0.0, 0.0, 0.0, 0.0, 0.0, 0.0, 0.0, 0.0, 0.0]",0
1475187220471631567,,1496,,1475187220,469110892,'',,0,1,37.3735093333,-122.114496,6.0,"[0.0, 0.0, 0.0, 0.0, 0.0, 0.0, 0.0, 0.0, 0.0]",0
1475187221471700443,,1497,,1475187221,469744282,'',,0,1,37.3735413333,-122.114570667,6.0,"[0.0, 0.0, 0.0, 0.0, 0.0, 0.0, 0.0, 0.0, 0.0]",0
1475187222495111929,,1498,,1475187222,490667145,'',,0,1,37.3735946667,-122.114645333,6.0,"[0.0, 0.0, 0.0, 0.0, 0.0, 0.0, 0.0, 0.0, 0.0]",0
1475187223491569385,,1499,,1475187223,478540269,'',,0,1,37.3736613333,-122.114730667,6.0,"[0.0, 0.0, 0.0, 0.0, 0.0, 0.0, 0.0, 0.0, 0.0]",0
1475187224471573129,,1500,,1475187224,469604749,'',,0,1,37.3737413333,-122.114826667,6.0,"[0.0, 0.0, 0.0, 0.0, 0.0, 0.0, 0.0, 0.0, 0.0]",0
1475187225491713792,,1501,,1475187225,478532992,'',,0,1,37.373832,-122.114922667,6.0,"[0.0, 0.0, 0.0, 0.0, 0.0, 0.0, 0.0, 0.0, 0.0]",0
1475187226491618192,,1502,,1475187226,478541582,'',,0,1,37.3739306667,-122.11504,6.0,"[0.0, 0.0, 0.0, 0.0, 0.0, 0.0, 0.0, 0.0, 0.0]",0
1475187227491586095,,1503,,1475187227,478456093,'',,0,1,37.3740373333,-122.115157333,6.0,"[0.0, 0.0, 0.0, 0.0, 0.0, 0.0, 0.0, 0.0, 0.0]",0
1475187228491628933,,1504,,1475187228,478516797,'',,0,1,37.3741493333,-122.115274667,6.0,"[0.0, 0.0, 0.0, 0.0, 0.0, 0.0, 0.0, 0.0, 0.0]",0
1475187229491556661,,1505,,1475187229,478521192,'',,0,1,37.374264,-122.115402667,6.0,"[0.0, 0.0, 0.0, 0.0, 0.0, 0.0, 0.0, 0.0, 0.0]",0
1475187230494629487,,1506,,1475187230,478449953,'',,0,1,37.374384,-122.115530667,6.0,"[0.0, 0.0, 0.0, 0.0, 0.0, 0.0, 0.0, 0.0, 0.0]",0
1475187231494195792,,1507,,1475187231,488557687,'',,0,1,37.3745093333,-122.115658667,6.0,"[0.0, 0.0, 0.0, 0.0, 0.0, 0.0, 0.0, 0.0, 0.0]",0
1475187232494158259,,1508,,1475187232,478566808,'',,0,1,37.374632,-122.115786667,6.0,"[0.0, 0.0, 0.0, 0.0, 0.0, 0.0, 0.0, 0.0, 0.0]",0
1475187233491788246,,1509,,1475187233,488363808,'',,0,1,37.374752,-122.115904,6.0,"[0.0, 0.0, 0.0, 0.0, 0.0, 0.0, 0.0, 0.0, 0.0]",0
1475187234491554982,,1510,,1475187234,488316597,'',,0,1,37.3748773333,-122.116032,6.0,"[0.0, 0.0, 0.0, 0.0, 0.0, 0.0, 0.0, 0.0, 0.0]",0
1475187235490734654,,1511,,1475187235,489082507,'',,0,1,37.375,-122.116149333,6.0,"[0.0, 0.0, 0.0, 0.0, 0.0, 0.0, 0.0, 0.0, 0.0]",0
1475187236490586927,,1512,,1475187236,489144572,'',,0,1,37.3751226667,-122.116266667,6.0,"[0.0, 0.0, 0.0, 0.0, 0.0, 0.0, 0.0, 0.0, 0.0]",0
1475187237490587251,,1513,,1475187237,488303940,'',,0,1,37.375248,-122.116384,6.0,"[0.0, 0.0, 0.0, 0.0, 0.0, 0.0, 0.0, 0.0, 0.0]",0
1475187238491155903,,1514,,1475187238,489299524,'',,0,1,37.3753706667,-122.116490667,6.0,"[0.0, 0.0, 0.0, 0.0, 0.0, 0.0, 0.0, 0.0, 0.0]",0
1475187239492384485,,1515,,1475187239,490277274,'',,0,1,37.3754986667,-122.116608,6.0,"[0.0, 0.0, 0.0, 0.0, 0.0, 0.0, 0.0, 0.0, 0.0]",0
1475187240494299378,,1516,,1475187240,490190619,'',,0,1,37.375624,-122.116725333,6.0,"[0.0, 0.0, 0.0, 0.0, 0.0, 0.0, 0.0, 0.0, 0.0]",0
1475187241491783695,,1517,,1475187241,489244116,'',,0,1,37.3757493333,-122.116832,6.0,"[0.0, 0.0, 0.0, 0.0, 0.0, 0.0, 0.0, 0.0, 0.0]",0
1475187242471338192,,1518,,1475187242,469097741,'',,0,1,37.375872,-122.116938667,6.0,"[0.0, 0.0, 0.0, 0.0, 0.0, 0.0, 0.0, 0.0, 0.0]",0
1475187243470468190,,1519,,1475187243,468808486,'',,0,1,37.3759946667,-122.117034667,6.0,"[0.0, 0.0, 0.0, 0.0, 0.0, 0.0, 0.0, 0.0, 0.0]",0
1475187244471894388,,1520,,1475187244,470099192,'',,0,1,37.3761173333,-122.117141333,6.0,"[0.0, 0.0, 0.0, 0.0, 0.0, 0.0, 0.0, 0.0, 0.0]",0
1475187245490838384,,1521,,1475187245,489300216,'',,0,1,37.3762373333,-122.117237333,6.0,"[0.0, 0.0, 0.0, 0.0, 0.0, 0.0, 0.0, 0.0, 0.0]",0
1475187246490707896,,1522,,1475187246,489326663,'',,0,1,37.3763546667,-122.117333333,6.0,"[0.0, 0.0, 0.0, 0.0, 0.0, 0.0, 0.0, 0.0, 0.0]",0
1475187247471477031,,1523,,1475187247,468734402,'',,0,1,37.3764693333,-122.117418667,6.0,"[0.0, 0.0, 0.0, 0.0, 0.0, 0.0, 0.0, 0.0, 0.0]",0
1475187248490587752,,1524,,1475187248,488814896,'',,0,1,37.3765813333,-122.117504,6.0,"[0.0, 0.0, 0.0, 0.0, 0.0, 0.0, 0.0, 0.0, 0.0]",0
1475187249490650594,,1525,,1475187249,489094953,'',,0,1,37.376688,-122.117589333,6.0,"[0.0, 0.0, 0.0, 0.0, 0.0, 0.0, 0.0, 0.0, 0.0]",0
1475187250490624453,,1526,,1475187250,489005130,'',,0,1,37.3767893333,-122.117674667,6.0,"[0.0, 0.0, 0.0, 0.0, 0.0, 0.0, 0.0, 0.0, 0.0]",0
1475187251470483362,,1527,,1475187251,468864635,'',,0,1,37.3768853333,-122.117749333,6.0,"[0.0, 0.0, 0.0, 0.0, 0.0, 0.0, 0.0, 0.0, 0.0]",0
1475187252491592213,,1528,,1475187252,489276795,'',,0,1,37.376976,-122.117824,6.0,"[0.0, 0.0, 0.0, 0.0, 0.0, 0.0, 0.0, 0.0, 0.0]",0
1475187253491609875,,1529,,1475187253,489244090,'',,0,1,37.3770613333,-122.117888,6.0,"[0.0, 0.0, 0.0, 0.0, 0.0, 0.0, 0.0, 0.0, 0.0]",0
1475187254491605001,,1530,,1475187254,488982768,'',,0,1,37.3771413333,-122.117952,6.0,"[0.0, 0.0, 0.0, 0.0, 0.0, 0.0, 0.0, 0.0, 0.0]",0
1475187255472081968,,1531,,1475187255,470025219,'',,0,1,37.3772106667,-122.118005333,6.0,"[0.0, 0.0, 0.0, 0.0, 0.0, 0.0, 0.0, 0.0, 0.0]",0
1475187256470669261,,1532,,1475187256,468635908,'',,0,1,37.3772693333,-122.118048,6.0,"[0.0, 0.0, 0.0, 0.0, 0.0, 0.0, 0.0, 0.0, 0.0]",0
1475187257472206981,,1533,,1475187257,470136411,'',,0,1,37.3773226667,-122.118090667,6.0,"[0.0, 0.0, 0.0, 0.0, 0.0, 0.0, 0.0, 0.0, 0.0]",0
1475187258472447368,,1534,,1475187258,470382901,'',,0,1,37.377376,-122.118133333,6.0,"[0.0, 0.0, 0.0, 0.0, 0.0, 0.0, 0.0, 0.0, 0.0]",0
1475187259471418928,,1535,,1475187259,469534890,'',,0,1,37.3774346667,-122.118186667,6.0,"[0.0, 0.0, 0.0, 0.0, 0.0, 0.0, 0.0, 0.0, 0.0]",0
1475187260470885046,,1536,,1475187260,468831774,'',,0,1,37.3775013333,-122.11824,6.0,"[0.0, 0.0, 0.0, 0.0, 0.0, 0.0, 0.0, 0.0, 0.0]",0
1475187261471812603,,1537,,1475187261,468832271,'',,0,1,37.3775786667,-122.118304,6.0,"[0.0, 0.0, 0.0, 0.0, 0.0, 0.0, 0.0, 0.0, 0.0]",0
1475187262492434101,,1538,,1475187262,489017176,'',,0,1,37.3776666667,-122.118368,6.0,"[0.0, 0.0, 0.0, 0.0, 0.0, 0.0, 0.0, 0.0, 0.0]",0
1475187263490545911,,1539,,1475187263,488703010,'',,0,1,37.3777626667,-122.118442667,6.0,"[0.0, 0.0, 0.0, 0.0, 0.0, 0.0, 0.0, 0.0, 0.0]",0
1475187264490573747,,1540,,1475187264,487847986,'',,0,1,37.377864,-122.118517333,6.0,"[0.0, 0.0, 0.0, 0.0, 0.0, 0.0, 0.0, 0.0, 0.0]",0
1475187265490502621,,1541,,1475187265,488841770,'',,0,1,37.3779706667,-122.118602667,6.0,"[0.0, 0.0, 0.0, 0.0, 0.0, 0.0, 0.0, 0.0, 0.0]",0
1475187266490519981,,1542,,1475187266,488905869,'',,0,1,37.3780826667,-122.118688,6.0,"[0.0, 0.0, 0.0, 0.0, 0.0, 0.0, 0.0, 0.0, 0.0]",0
1475187267490900546,,1543,,1475187267,490217697,'',,0,1,37.3781973333,-122.118784,6.0,"[0.0, 0.0, 0.0, 0.0, 0.0, 0.0, 0.0, 0.0, 0.0]",0
1475187268491012606,,1544,,1475187268,489969057,'',,0,1,37.3783146667,-122.118869333,6.0,"[0.0, 0.0, 0.0, 0.0, 0.0, 0.0, 0.0, 0.0, 0.0]",0
1475187269470723512,,1545,,1475187269,468636952,'',,0,1,37.378432,-122.118965333,6.0,"[0.0, 0.0, 0.0, 0.0, 0.0, 0.0, 0.0, 0.0, 0.0]",0
1475187270471021165,,1546,,1475187270,468985651,'',,0,1,37.3785546667,-122.119061333,6.0,"[0.0, 0.0, 0.0, 0.0, 0.0, 0.0, 0.0, 0.0, 0.0]",0
1475187271471456176,,1547,,1475187271,469467881,'',,0,1,37.37868,-122.119157333,6.0,"[0.0, 0.0, 0.0, 0.0, 0.0, 0.0, 0.0, 0.0, 0.0]",0
1475187272470315881,,1548,,1475187272,468600192,'',,0,1,37.3788053333,-122.119253333,6.0,"[0.0, 0.0, 0.0, 0.0, 0.0, 0.0, 0.0, 0.0, 0.0]",0
1475187273470275771,,1549,,1475187273,468602744,'',,0,1,37.3789333333,-122.119349333,6.0,"[0.0, 0.0, 0.0, 0.0, 0.0, 0.0, 0.0, 0.0, 0.0]",0
1475187274471749206,,1550,,1475187274,469706029,'',,0,1,37.379064,-122.119456,6.0,"[0.0, 0.0, 0.0, 0.0, 0.0, 0.0, 0.0, 0.0, 0.0]",0
1475187275470308515,,1551,,1475187275,468491785,'',,0,1,37.3791946667,-122.119552,6.0,"[0.0, 0.0, 0.0, 0.0, 0.0, 0.0, 0.0, 0.0, 0.0]",0
1475187276470427753,,1552,,1475187276,468332469,'',,0,1,37.3793253333,-122.119658667,6.0,"[0.0, 0.0, 0.0, 0.0, 0.0, 0.0, 0.0, 0.0, 0.0]",0
1475187277490546376,,1553,,1475187277,488700799,'',,0,1,37.379456,-122.119754667,6.0,"[0.0, 0.0, 0.0, 0.0, 0.0, 0.0, 0.0, 0.0, 0.0]",0
1475187278471097926,,1554,,1475187278,469251422,'',,0,1,37.379584,-122.119850667,6.0,"[0.0, 0.0, 0.0, 0.0, 0.0, 0.0, 0.0, 0.0, 0.0]",0
1475187279471339324,,1555,,1475187279,468333220,'',,0,1,37.3797093333,-122.119946667,6.0,"[0.0, 0.0, 0.0, 0.0, 0.0, 0.0, 0.0, 0.0, 0.0]",0
1475187280490533408,,1556,,1475187280,488740860,'',,0,1,37.379832,-122.120042667,6.0,"[0.0, 0.0, 0.0, 0.0, 0.0, 0.0, 0.0, 0.0, 0.0]",0
1475187281491542006,,1557,,1475187281,482651274,'',,0,1,37.379952,-122.120138667,6.0,"[0.0, 0.0, 0.0, 0.0, 0.0, 0.0, 0.0, 0.0, 0.0]",0
1475187282491449422,,1558,,1475187282,482833128,'',,0,1,37.3800746667,-122.120234667,6.0,"[0.0, 0.0, 0.0, 0.0, 0.0, 0.0, 0.0, 0.0, 0.0]",0
1475187283471188604,,1559,,1475187283,469324398,'',,0,1,37.380192,-122.12032,6.0,"[0.0, 0.0, 0.0, 0.0, 0.0, 0.0, 0.0, 0.0, 0.0]",0
1475187284470597286,,1560,,1475187284,468587906,'',,0,1,37.3803093333,-122.120416,6.0,"[0.0, 0.0, 0.0, 0.0, 0.0, 0.0, 0.0, 0.0, 0.0]",0
1475187285490583002,,1561,,1475187285,482606398,'',,0,1,37.3804293333,-122.120501333,6.0,"[0.0, 0.0, 0.0, 0.0, 0.0, 0.0, 0.0, 0.0, 0.0]",0
1475187286490486193,,1562,,1475187286,482670143,'',,0,1,37.380552,-122.120597333,6.0,"[0.0, 0.0, 0.0, 0.0, 0.0, 0.0, 0.0, 0.0, 0.0]",0
1475187287471090629,,1563,,1475187287,468142431,'',,0,1,37.3806746667,-122.120693333,6.0,"[0.0, 0.0, 0.0, 0.0, 0.0, 0.0, 0.0, 0.0, 0.0]",0
1475187288490512309,,1564,,1475187288,482431950,'',,0,1,37.3808,-122.120789333,6.0,"[0.0, 0.0, 0.0, 0.0, 0.0, 0.0, 0.0, 0.0, 0.0]",0
1475187289490627882,,1565,,1475187289,482608387,'',,0,1,37.380928,-122.120885333,6.0,"[0.0, 0.0, 0.0, 0.0, 0.0, 0.0, 0.0, 0.0, 0.0]",0
1475187290470611202,,1566,,1475187290,468581114,'',,0,1,37.3810506667,-122.120981333,6.0,"[0.0, 0.0, 0.0, 0.0, 0.0, 0.0, 0.0, 0.0, 0.0]",0
1475187291471194442,,1567,,1475187291,468274710,'',,0,1,37.381176,-122.121066667,6.0,"[0.0, 0.0, 0.0, 0.0, 0.0, 0.0, 0.0, 0.0, 0.0]",0
1475187292471342750,,1568,,1475187292,469333661,'',,0,1,37.3812986667,-122.121162667,6.0,"[0.0, 0.0, 0.0, 0.0, 0.0, 0.0, 0.0, 0.0, 0.0]",0
1475187293470589568,,1569,,1475187293,468493442,'',,0,1,37.381416,-122.121258667,6.0,"[0.0, 0.0, 0.0, 0.0, 0.0, 0.0, 0.0, 0.0, 0.0]",0
1475187294490765294,,1570,,1475187294,482324929,'',,0,1,37.3815333333,-122.121344,6.0,"[0.0, 0.0, 0.0, 0.0, 0.0, 0.0, 0.0, 0.0, 0.0]",0
1475187295490498253,,1571,,1475187295,482775953,'',,0,1,37.381656,-122.12144,6.0,"[0.0, 0.0, 0.0, 0.0, 0.0, 0.0, 0.0, 0.0, 0.0]",0
1475187296470503626,,1572,,1475187296,468458590,'',,0,1,37.3817813333,-122.121536,6.0,"[0.0, 0.0, 0.0, 0.0, 0.0, 0.0, 0.0, 0.0, 0.0]",0
1475187297470580240,,1573,,1475187297,468525054,'',,0,1,37.381904,-122.121632,6.0,"[0.0, 0.0, 0.0, 0.0, 0.0, 0.0, 0.0, 0.0, 0.0]",0
1475187298490491070,,1574,,1475187298,482477329,'',,0,1,37.382032,-122.121728,6.0,"[0.0, 0.0, 0.0, 0.0, 0.0, 0.0, 0.0, 0.0, 0.0]",0
1475187299490644030,,1575,,1475187299,482213794,'',,0,1,37.3821626667,-122.121824,6.0,"[0.0, 0.0, 0.0, 0.0, 0.0, 0.0, 0.0, 0.0, 0.0]",0
1475187300490701985,,1576,,1475187300,482469814,'',,0,1,37.3822906667,-122.121930667,6.0,"[0.0, 0.0, 0.0, 0.0, 0.0, 0.0, 0.0, 0.0, 0.0]",0
1475187301495374305,,1577,,1475187301,492930021,'',,0,1,37.382424,-122.122037333,6.0,"[0.0, 0.0, 0.0, 0.0, 0.0, 0.0, 0.0, 0.0, 0.0]",0
1475187302500571004,,1578,,1475187302,482685479,'',,0,1,37.3825573333,-122.122144,6.0,"[0.0, 0.0, 0.0, 0.0, 0.0, 0.0, 0.0, 0.0, 0.0]",0
1475187303472551250,,1579,,1475187303,468601675,'',,0,1,37.382696,-122.122250667,6.0,"[0.0, 0.0, 0.0, 0.0, 0.0, 0.0, 0.0, 0.0, 0.0]",0
1475187304500199259,,1580,,1475187304,482492073,'',,0,1,37.3828346667,-122.122368,6.0,"[0.0, 0.0, 0.0, 0.0, 0.0, 0.0, 0.0, 0.0, 0.0]",0
1475187305470852950,,1581,,1475187305,468897281,'',,0,1,37.3829786667,-122.122485333,6.0,"[0.0, 0.0, 0.0, 0.0, 0.0, 0.0, 0.0, 0.0, 0.0]",0
1475187306490746907,,1582,,1475187306,482065325,'',,0,1,37.3831253333,-122.122602667,6.0,"[0.0, 0.0, 0.0, 0.0, 0.0, 0.0, 0.0, 0.0, 0.0]",0
1475187307490528046,,1583,,1475187307,482614876,'',,0,1,37.3832746667,-122.12272,6.0,"[0.0, 0.0, 0.0, 0.0, 0.0, 0.0, 0.0, 0.0, 0.0]",0
1475187308470995709,,1584,,1475187308,468950683,'',,0,1,37.383424,-122.122837333,6.0,"[0.0, 0.0, 0.0, 0.0, 0.0, 0.0, 0.0, 0.0, 0.0]",0
1475187309490824719,,1585,,1475187309,482752958,'',,0,1,37.383576,-122.122965333,6.0,"[0.0, 0.0, 0.0, 0.0, 0.0, 0.0, 0.0, 0.0, 0.0]",0
1475187310471309100,,1586,,1475187310,468292050,'',,0,1,37.3837306667,-122.123093333,6.0,"[0.0, 0.0, 0.0, 0.0, 0.0, 0.0, 0.0, 0.0, 0.0]",0
1475187311470365320,,1587,,1475187311,469244123,'',,0,1,37.383888,-122.123210667,6.0,"[0.0, 0.0, 0.0, 0.0, 0.0, 0.0, 0.0, 0.0, 0.0]",0
1475187312470849334,,1588,,1475187312,468822937,'',,0,1,37.3840426667,-122.123338667,6.0,"[0.0, 0.0, 0.0, 0.0, 0.0, 0.0, 0.0, 0.0, 0.0]",0
1475187313471269172,,1589,,1475187313,468823223,'',,0,1,37.3842026667,-122.123466667,6.0,"[0.0, 0.0, 0.0, 0.0, 0.0, 0.0, 0.0, 0.0, 0.0]",0
1475187314491523483,,1590,,1475187314,481809291,'',,0,1,37.3843573333,-122.123594667,6.0,"[0.0, 0.0, 0.0, 0.0, 0.0, 0.0, 0.0, 0.0, 0.0]",0
1475187315490957636,,1591,,1475187315,481782286,'',,0,1,37.3845173333,-122.123712,6.0,"[0.0, 0.0, 0.0, 0.0, 0.0, 0.0, 0.0, 0.0, 0.0]",0
1475187316490670364,,1592,,1475187316,482068942,'',,0,1,37.3846746667,-122.12384,6.0,"[0.0, 0.0, 0.0, 0.0, 0.0, 0.0, 0.0, 0.0, 0.0]",0
1475187317490703774,,1593,,1475187317,481966558,'',,0,1,37.384832,-122.123968,6.0,"[0.0, 0.0, 0.0, 0.0, 0.0, 0.0, 0.0, 0.0, 0.0]",0
1475187318490988229,,1594,,1475187318,481670976,'',,0,1,37.3849893333,-122.124096,6.0,"[0.0, 0.0, 0.0, 0.0, 0.0, 0.0, 0.0, 0.0, 0.0]",0
1475187319470910277,,1595,,1475187319,468944286,'',,0,1,37.3851493333,-122.124213333,6.0,"[0.0, 0.0, 0.0, 0.0, 0.0, 0.0, 0.0, 0.0, 0.0]",0
1475187320471733108,,1596,,1475187320,469708471,'',,0,1,37.3853066667,-122.124341333,6.0,"[0.0, 0.0, 0.0, 0.0, 0.0, 0.0, 0.0, 0.0, 0.0]",0
1475187321471901229,,1597,,1475187321,468958675,'',,0,1,37.385464,-122.124469333,6.0,"[0.0, 0.0, 0.0, 0.0, 0.0, 0.0, 0.0, 0.0, 0.0]",0
1475187322490767473,,1598,,1475187322,482078394,'',,0,1,37.385624,-122.124586667,6.0,"[0.0, 0.0, 0.0, 0.0, 0.0, 0.0, 0.0, 0.0, 0.0]",0
1475187323471994008,,1599,,1475187323,469886002,'',,0,1,37.385784,-122.124714667,6.0,"[0.0, 0.0, 0.0, 0.0, 0.0, 0.0, 0.0, 0.0, 0.0]",0
1475187324491516728,,1600,,1475187324,481765447,'',,0,1,37.385944,-122.124832,6.0,"[0.0, 0.0, 0.0, 0.0, 0.0, 0.0, 0.0, 0.0, 0.0]",0
1475187325491456185,,1601,,1475187325,481767103,'',,0,1,37.386104,-122.12496,6.0,"[0.0, 0.0, 0.0, 0.0, 0.0, 0.0, 0.0, 0.0, 0.0]",0
1475187326470911309,,1602,,1475187326,469523683,'',,0,1,37.386264,-122.125088,6.0,"[0.0, 0.0, 0.0, 0.0, 0.0, 0.0, 0.0, 0.0, 0.0]",0
1475187327471023931,,1603,,1475187327,469339442,'',,0,1,37.386424,-122.125205333,6.0,"[0.0, 0.0, 0.0, 0.0, 0.0, 0.0, 0.0, 0.0, 0.0]",0
1475187328490977523,,1604,,1475187328,481909406,'',,0,1,37.3865813333,-122.125333333,6.0,"[0.0, 0.0, 0.0, 0.0, 0.0, 0.0, 0.0, 0.0, 0.0]",0
1475187329471740243,,1605,,1475187329,469713989,'',,0,1,37.386736,-122.125461333,6.0,"[0.0, 0.0, 0.0, 0.0, 0.0, 0.0, 0.0, 0.0, 0.0]",0
1475187330491208559,,1606,,1475187330,481536971,'',,0,1,37.3868933333,-122.125578667,6.0,"[0.0, 0.0, 0.0, 0.0, 0.0, 0.0, 0.0, 0.0, 0.0]",0
1475187331471845581,,1607,,1475187331,469444025,'',,0,1,37.387048,-122.125706667,6.0,"[0.0, 0.0, 0.0, 0.0, 0.0, 0.0, 0.0, 0.0, 0.0]",0
1475187332490764447,,1608,,1475187332,481612330,'',,0,1,37.3872053333,-122.125824,6.0,"[0.0, 0.0, 0.0, 0.0, 0.0, 0.0, 0.0, 0.0, 0.0]",0
1475187333491431323,,1609,,1475187333,481345517,'',,0,1,37.3873626667,-122.125952,6.0,"[0.0, 0.0, 0.0, 0.0, 0.0, 0.0, 0.0, 0.0, 0.0]",0
1475187334471907498,,1610,,1475187334,469204666,'',,0,1,37.3875226667,-122.126069333,6.0,"[0.0, 0.0, 0.0, 0.0, 0.0, 0.0, 0.0, 0.0, 0.0]",0
1475187335471598717,,1611,,1475187335,469780118,'',,0,1,37.3876826667,-122.126197333,6.0,"[0.0, 0.0, 0.0, 0.0, 0.0, 0.0, 0.0, 0.0, 0.0]",0
1475187336491306121,,1612,,1475187336,481432300,'',,0,1,37.3878453333,-122.126325333,6.0,"[0.0, 0.0, 0.0, 0.0, 0.0, 0.0, 0.0, 0.0, 0.0]",0
1475187337490980417,,1613,,1475187337,481864651,'',,0,1,37.3880106667,-122.126453333,6.0,"[0.0, 0.0, 0.0, 0.0, 0.0, 0.0, 0.0, 0.0, 0.0]",0
1475187338471843367,,1614,,1475187338,469936992,'',,0,1,37.3881786667,-122.126570667,6.0,"[0.0, 0.0, 0.0, 0.0, 0.0, 0.0, 0.0, 0.0, 0.0]",0
1475187339472073272,,1615,,1475187339,469215995,'',,0,1,37.388344,-122.126698667,6.0,"[0.0, 0.0, 0.0, 0.0, 0.0, 0.0, 0.0, 0.0, 0.0]",0
1475187340471918428,,1616,,1475187340,469232775,'',,0,1,37.388512,-122.126816,6.0,"[0.0, 0.0, 0.0, 0.0, 0.0, 0.0, 0.0, 0.0, 0.0]",0
1475187341472002560,,1617,,1475187341,470012663,'',,0,1,37.3886826667,-122.126922667,6.0,"[0.0, 0.0, 0.0, 0.0, 0.0, 0.0, 0.0, 0.0, 0.0]",0
1475187342491038852,,1618,,1475187342,481611350,'',,0,1,37.3888506667,-122.12704,6.0,"[0.0, 0.0, 0.0, 0.0, 0.0, 0.0, 0.0, 0.0, 0.0]",0
1475187343471193418,,1619,,1475187343,469367682,'',,0,1,37.3890186667,-122.127146667,6.0,"[0.0, 0.0, 0.0, 0.0, 0.0, 0.0, 0.0, 0.0, 0.0]",0
1475187344460418897,,1620,,1475187344,458728076,'',,0,1,37.3891893333,-122.127264,6.0,"[0.0, 0.0, 0.0, 0.0, 0.0, 0.0, 0.0, 0.0, 0.0]",0
1475187345471316829,,1621,,1475187345,469493681,'',,0,1,37.3893573333,-122.127370667,6.0,"[0.0, 0.0, 0.0, 0.0, 0.0, 0.0, 0.0, 0.0, 0.0]",0
1475187346491527108,,1622,,1475187346,481629316,'',,0,1,37.3895226667,-122.127477333,6.0,"[0.0, 0.0, 0.0, 0.0, 0.0, 0.0, 0.0, 0.0, 0.0]",0
1475187347471765183,,1623,,1475187347,470117010,'',,0,1,37.3896906667,-122.127594667,6.0,"[0.0, 0.0, 0.0, 0.0, 0.0, 0.0, 0.0, 0.0, 0.0]",0
1475187348491178106,,1624,,1475187348,481347852,'',,0,1,37.389856,-122.127701333,6.0,"[0.0, 0.0, 0.0, 0.0, 0.0, 0.0, 0.0, 0.0, 0.0]",0
1475187349490777314,,1625,,1475187349,482331994,'',,0,1,37.3900213333,-122.127808,6.0,"[0.0, 0.0, 0.0, 0.0, 0.0, 0.0, 0.0, 0.0, 0.0]",0
1475187350460180348,,1626,,1475187350,458694369,'',,0,1,37.3901866667,-122.127914667,6.0,"[0.0, 0.0, 0.0, 0.0, 0.0, 0.0, 0.0, 0.0, 0.0]",0
1475187351492426292,,1627,,1475187351,490609686,'',,0,1,37.3903493333,-122.128021333,6.0,"[0.0, 0.0, 0.0, 0.0, 0.0, 0.0, 0.0, 0.0, 0.0]",0
1475187352471748870,,1628,,1475187352,469741977,'',,0,1,37.3905146667,-122.128128,6.0,"[0.0, 0.0, 0.0, 0.0, 0.0, 0.0, 0.0, 0.0, 0.0]",0
1475187353471795020,,1629,,1475187353,469851360,'',,0,1,37.39068,-122.128234667,6.0,"[0.0, 0.0, 0.0, 0.0, 0.0, 0.0, 0.0, 0.0, 0.0]",0
1475187354471032102,,1630,,1475187354,469114105,'',,0,1,37.3908453333,-122.128341333,6.0,"[0.0, 0.0, 0.0, 0.0, 0.0, 0.0, 0.0, 0.0, 0.0]",0
1475187355471842862,,1631,,1475187355,469088939,'',,0,1,37.3910133333,-122.128458667,6.0,"[0.0, 0.0, 0.0, 0.0, 0.0, 0.0, 0.0, 0.0, 0.0]",0
1475187356460078907,,1632,,1475187356,458819543,'',,0,1,37.391184,-122.128565333,6.0,"[0.0, 0.0, 0.0, 0.0, 0.0, 0.0, 0.0, 0.0, 0.0]",0
1475187357460207759,,1633,,1475187357,459319852,'',,0,1,37.3913573333,-122.128682667,6.0,"[0.0, 0.0, 0.0, 0.0, 0.0, 0.0, 0.0, 0.0, 0.0]",0
1475187358472133293,,1634,,1475187358,469360979,'',,0,1,37.3915333333,-122.1288,6.0,"[0.0, 0.0, 0.0, 0.0, 0.0, 0.0, 0.0, 0.0, 0.0]",0
1475187359460188901,,1635,,1475187359,459088296,'',,0,1,37.3917093333,-122.128917333,6.0,"[0.0, 0.0, 0.0, 0.0, 0.0, 0.0, 0.0, 0.0, 0.0]",0
1475187360492468022,,1636,,1475187360,490782738,'',,0,1,37.3918906667,-122.129034667,6.0,"[0.0, 0.0, 0.0, 0.0, 0.0, 0.0, 0.0, 0.0, 0.0]",0
1475187361470814479,,1637,,1475187361,468813452,'',,0,1,37.392072,-122.129152,6.0,"[0.0, 0.0, 0.0, 0.0, 0.0, 0.0, 0.0, 0.0, 0.0]",0
1475187362471808301,,1638,,1475187362,469878509,'',,0,1,37.3922533333,-122.12928,6.0,"[0.0, 0.0, 0.0, 0.0, 0.0, 0.0, 0.0, 0.0, 0.0]",0
1475187363460165600,,1639,,1475187363,459221089,'',,0,1,37.3924373333,-122.129386667,6.0,"[0.0, 0.0, 0.0, 0.0, 0.0, 0.0, 0.0, 0.0, 0.0]",0
1475187364460113302,,1640,,1475187364,459204967,'',,0,1,37.3926186667,-122.129514667,6.0,"[0.0, 0.0, 0.0, 0.0, 0.0, 0.0, 0.0, 0.0, 0.0]",0
1475187365460100688,,1641,,1475187365,459071155,'',,0,1,37.3928026667,-122.129632,6.0,"[0.0, 0.0, 0.0, 0.0, 0.0, 0.0, 0.0, 0.0, 0.0]",0
1475187366470790562,,1642,,1475187366,468815254,'',,0,1,37.392984,-122.129749333,6.0,"[0.0, 0.0, 0.0, 0.0, 0.0, 0.0, 0.0, 0.0, 0.0]",0
1475187367460123012,,1643,,1475187367,458987161,'',,0,1,37.3931626667,-122.129866667,6.0,"[0.0, 0.0, 0.0, 0.0, 0.0, 0.0, 0.0, 0.0, 0.0]",0
1475187368460185237,,1644,,1475187368,459022391,'',,0,1,37.3933413333,-122.129984,6.0,"[0.0, 0.0, 0.0, 0.0, 0.0, 0.0, 0.0, 0.0, 0.0]",0
1475187369460628056,,1645,,1475187369,459484462,'',,0,1,37.39352,-122.130101333,6.0,"[0.0, 0.0, 0.0, 0.0, 0.0, 0.0, 0.0, 0.0, 0.0]",0
1475187370460181205,,1646,,1475187370,459027311,'',,0,1,37.393696,-122.130218667,6.0,"[0.0, 0.0, 0.0, 0.0, 0.0, 0.0, 0.0, 0.0, 0.0]",0
1475187371460160397,,1647,,1475187371,459048925,'',,0,1,37.393872,-122.130325333,6.0,"[0.0, 0.0, 0.0, 0.0, 0.0, 0.0, 0.0, 0.0, 0.0]",0
1475187372490979535,,1648,,1475187372,490127826,'',,0,1,37.3940506667,-122.130442667,6.0,"[0.0, 0.0, 0.0, 0.0, 0.0, 0.0, 0.0, 0.0, 0.0]",0
1475187373460159657,,1649,,1475187373,459232612,'',,0,1,37.3942293333,-122.13056,6.0,"[0.0, 0.0, 0.0, 0.0, 0.0, 0.0, 0.0, 0.0, 0.0]",0
1475187374471849821,,1650,,1475187374,469624554,'',,0,1,37.3944026667,-122.130677333,6.0,"[0.0, 0.0, 0.0, 0.0, 0.0, 0.0, 0.0, 0.0, 0.0]",0
1475187375460119428,,1651,,1475187375,459357601,'',,0,1,37.3945813333,-122.130784,6.0,"[0.0, 0.0, 0.0, 0.0, 0.0, 0.0, 0.0, 0.0, 0.0]",0
1475187376460057693,,1652,,1475187376,459124872,'',,0,1,37.3947573333,-122.130901333,6.0,"[0.0, 0.0, 0.0, 0.0, 0.0, 0.0, 0.0, 0.0, 0.0]",0
1475187377460040129,,1653,,1475187377,459228400,'',,0,1,37.3949333333,-122.131018667,6.0,"[0.0, 0.0, 0.0, 0.0, 0.0, 0.0, 0.0, 0.0, 0.0]",0
1475187378470723265,,1654,,1475187378,468765517,'',,0,1,37.3951093333,-122.131136,6.0,"[0.0, 0.0, 0.0, 0.0, 0.0, 0.0, 0.0, 0.0, 0.0]",0
1475187379460439596,,1655,,1475187379,459680737,'',,0,1,37.3952826667,-122.131253333,6.0,"[0.0, 0.0, 0.0, 0.0, 0.0, 0.0, 0.0, 0.0, 0.0]",0
1475187380460145553,,1656,,1475187380,459219962,'',,0,1,37.3954533333,-122.131370667,6.0,"[0.0, 0.0, 0.0, 0.0, 0.0, 0.0, 0.0, 0.0, 0.0]",0
1475187381460575151,,1657,,1475187381,459915013,'',,0,1,37.3956213333,-122.131488,6.0,"[0.0, 0.0, 0.0, 0.0, 0.0, 0.0, 0.0, 0.0, 0.0]",0
1475187382460118687,,1658,,1475187382,459232690,'',,0,1,37.3957893333,-122.131594667,6.0,"[0.0, 0.0, 0.0, 0.0, 0.0, 0.0, 0.0, 0.0, 0.0]",0
1475187383460108169,,1659,,1475187383,459250186,'',,0,1,37.395952,-122.131712,6.0,"[0.0, 0.0, 0.0, 0.0, 0.0, 0.0, 0.0, 0.0, 0.0]",0
1475187384473655385,,1660,,1475187384,471617422,'',,0,1,37.3961093333,-122.131829333,6.0,"[0.0, 0.0, 0.0, 0.0, 0.0, 0.0, 0.0, 0.0, 0.0]",0
1475187385473746330,,1661,,1475187385,471581812,'',,0,1,37.3962666667,-122.131946667,6.0,"[0.0, 0.0, 0.0, 0.0, 0.0, 0.0, 0.0, 0.0, 0.0]",0
1475187386473208483,,1662,,1475187386,471122917,'',,0,1,37.3964213333,-122.132053333,6.0,"[0.0, 0.0, 0.0, 0.0, 0.0, 0.0, 0.0, 0.0, 0.0]",0
1475187387472594690,,1663,,1475187387,470428107,'',,0,1,37.3965733333,-122.132170667,-42.5,"[0.0, 0.0, 0.0, 0.0, 0.0, 0.0, 0.0, 0.0, 0.0]",0
1475187388473233522,,1664,,1475187388,470955256,'',,0,1,37.39672,-122.132277333,-42.5,"[0.0, 0.0, 0.0, 0.0, 0.0, 0.0, 0.0, 0.0, 0.0]",0
1475187389460302946,,1665,,1475187389,459076131,'',,0,1,37.3968666667,-122.132384,-42.5,"[0.0, 0.0, 0.0, 0.0, 0.0, 0.0, 0.0, 0.0, 0.0]",0
1475187390470871921,,1666,,1475187390,468888000,'',,0,1,37.397008,-122.132490667,-42.5,"[0.0, 0.0, 0.0, 0.0, 0.0, 0.0, 0.0, 0.0, 0.0]",0
1475187391471598384,,1667,,1475187391,469518354,'',,0,1,37.3971493333,-122.132597333,-42.5,"[0.0, 0.0, 0.0, 0.0, 0.0, 0.0, 0.0, 0.0, 0.0]",0
1475187392471329118,,1668,,1475187392,469405503,'',,0,1,37.3972853333,-122.132693333,-42.5,"[0.0, 0.0, 0.0, 0.0, 0.0, 0.0, 0.0, 0.0, 0.0]",0
1475187393470685183,,1669,,1475187393,468666889,'',,0,1,37.397416,-122.132789333,-42.5,"[0.0, 0.0, 0.0, 0.0, 0.0, 0.0, 0.0, 0.0, 0.0]",0
1475187394460069958,,1670,,1475187394,458989366,'',,0,1,37.397544,-122.132885333,-42.5,"[0.0, 0.0, 0.0, 0.0, 0.0, 0.0, 0.0, 0.0, 0.0]",0
1475187395462316016,,1671,,1475187395,459535339,'',,0,1,37.3976693333,-122.132992,-42.5,"[0.0, 0.0, 0.0, 0.0, 0.0, 0.0, 0.0, 0.0, 0.0]",0
1475187396462363951,,1672,,1475187396,459609793,'',,0,1,37.397784,-122.133088,-42.5,"[0.0, 0.0, 0.0, 0.0, 0.0, 0.0, 0.0, 0.0, 0.0]",0
1475187397470592801,,1673,,1475187397,468890105,'',,0,1,37.397896,-122.133184,-42.5,"[0.0, 0.0, 0.0, 0.0, 0.0, 0.0, 0.0, 0.0, 0.0]",0
1475187398461817069,,1674,,1475187398,459749623,'',,0,1,37.398,-122.133290667,-42.5,"[0.0, 0.0, 0.0, 0.0, 0.0, 0.0, 0.0, 0.0, 0.0]",0
1475187399461787152,,1675,,1475187399,459542155,'',,0,1,37.3980986667,-122.133386667,-42.5,"[0.0, 0.0, 0.0, 0.0, 0.0, 0.0, 0.0, 0.0, 0.0]",0
